re;city;geo_lat;geo_lon
адыгейск[а|у|е]?;Адыгейск;44.878414;39.190289
майкоп[а|у|е]?;Майкоп;44.6098268;40.1006606
горно-алтайск[а|у|е]?;Горно-Алтайск;51.9581028;85.9603235
алейск[а|у|е]?;Алейск;52.4922513;82.7793606
барнаул[а|у|е]?;Барнаул;53.3479968;83.7798064
белокурих[а|е|у];Белокуриха;51.996152;84.9839604
бийск[а|у|е]?;Бийск;52.5393864;85.2138453
горняк[а|у|е]?;Горняк;50.9979622;81.4643358
заринск[а|у|е]?;Заринск;53.7063476;84.9315081
змеиногорск[а|у|е]?;Змеиногорск;51.1581094;82.1872547
камен[ь|е|я|ю]-на-оби?;Камень-на-Оби;53.7913974;81.3545053
новоалтайск[а|у|е]?;Новоалтайск;53.4119759;83.9311069
рубцовск[а|у|е]?;Рубцовск;51.5012067;81.2078695
славгород[а|у|е]?;Славгород;52.999463;78.6459232
ярово[я|и|е|ю];Яровое;52.9252146;78.5729775
белогорск[а|у|е]?;Белогорск;50.9213415;128.4739471
благовещенск[а|у|е]?;Благовещенск;50.290659;127.527198
завитинск[а|у|е]?;Завитинск;50.1064111;129.4391813
зе[я|и|е|ю];Зея;53.7340088;127.265787
райчихинск[а|у|е]?;Райчихинск;49.7941615;129.4112492
свободн[ы|о][й|г|м][о|у]?;Свободный;51.3614103;128.1219729
сковородин[о|у|е];Сковородино;53.9871095;123.9437205
тынд[а|е|у];Тында;55.1546441;124.7468904
циолковск[и|о][й|г|м][о|у]?;Циолковский;51.762481;128.1219846
шимановск[а|у|е]?;Шимановск;52.0051886;127.7005458
архангельск[а|у|е]?;Архангельск;64.5394289;40.5169606
вельск[а|у|е]?;Вельск;61.066;42.1032789
каргопол[ь|и];Каргополь;61.5009724;38.9636966
коряжм[а|е|у];Коряжма;61.2885948;47.1003015
котлас[а|у|е]?;Котлас;61.2528972;46.633242
мезен[ь|и];Мезень;65.8398078;44.2532273
мирн[ы|о][й|г|м][о|у]?;Мирный;62.7645265;40.3360076
новодвинск[а|у|е]?;Новодвинск;64.4136851;40.8208143
няндом[а|е|у];Няндома;61.6654674;40.2062947
онег[а|е|у];Онега;63.9162928;38.0805031
северодвинск[а|у|е]?;Северодвинск;64.5625385;39.8180934
сольвычегодск[а|у|е]?;Сольвычегодск;61.3319616;46.920441
шенкурск[а|у|е]?;Шенкурск;62.1057272;42.8996973
астрахан[ь|и];Астрахань;46.3655652;48.0559236
ахтубинск[а|у|е]?;Ахтубинск;48.2752034;46.1906462
знаменск[а|у|е]?;Знаменск;48.5866291;45.7368019
камызяк[а|у|е]?;Камызяк;46.110579;48.07333
нариманов[а|у|е]?;Нариманов;46.6916565;47.8502476
хараба[и|е|я][й|м]?;Харабали;47.408999;47.2525345
агидел[ь|и];Агидель;55.8999056;53.9220144
баймак[а|у|е]?;Баймак;52.5912896;58.3110998
белебе[й|я|е|ю];Белебей;54.1034582;54.1113129
белорецк[а|у|е]?;Белорецк;53.9676488;58.4100419
бирск[а|у|е]?;Бирск;55.4155753;55.5582214
благовещенск[а|у|е]?;Благовещенск;55.0499867;55.9553186
давлеканов[о|у|е];Давлеканово;54.2226707;55.0312373
дюртю[и|е|я][й|м]?;Дюртюли;55.4848318;54.8524765
ишимба[й|я|ю|е]?;Ишимбай;53.4545764;56.0438751
кумертау;Кумертау;52.7564939;55.7970197
межгорь[я|и|е|ю];Межгорье;54.2397689;57.9614547
мелеуз[а|у|е]?;Мелеуз;52.9589532;55.9282838
нефтекамск[а|у|е]?;Нефтекамск;56.088377;54.2483061
октябрьск[и|о][й|г|м][о|у]?;Октябрьский;54.4815311;53.4655972
салават[а|у|е]?;Салават;53.3616974;55.9245224
сиба[й|я|ю|е]?;Сибай;52.7204651;58.6663783
стерлитамак[а|у|е]?;Стерлитамак;53.6300864;55.9317089
туймаз[ы|о|а|е][м|в]?;Туймазы;54.5999224;53.6950623
уф[а|е|у|ы];Уфа;54.734944;55.9578468
учал[ы|о|а|е][м|в]?;Учалы;54.3067375;59.4125461
янаул[а|у|е]?;Янаул;56.2650146;54.929907
алексеевк[а|е|у];Алексеевка;50.6299647;38.6880342
белгород[а|у|е]?;Белгород;50.5976472;36.5856652
бирюч[а|у|е]?;Бирюч;50.6484585;38.4005083
валуйк[а|и]?[х|м]?;Валуйки;50.2111207;38.0998772
грайворон[а|у|е]?;Грайворон;50.4862958;35.6663877
губкин[а|у|е]?;Губкин;51.2837123;37.5347759
нов[ы|о][й|г|м][у|о]? оскол[а|у|е]?;Новый Оскол;50.7633747;37.8775484
стар[ы|о][й|г|м][у|о]? оскол[а|у|е]?;Старый Оскол;51.2967101;37.8350182
строител[ь|и];Строитель;50.7845099;36.4887648
шебекин[о|у|е];Шебекино;50.4004883;36.8877889
брянск[а|у|е]?;Брянск;53.2419535;34.3652146
дятьков[о|у|е];Дятьково;53.5958178;34.3551812
жуковк[а|е|у];Жуковка;53.5340397;33.7302579
злынк[а|е|у];Злынка;52.4267015;31.7360399
карачев[а|у|е]?;Карачев;53.1296524;34.9888727
клинц[ы|о|а|е][м|в]?;Клинцы;52.7529119;32.233911
мглин[а|у|е]?;Мглин;53.0599771;32.8468129
новозыбков[а|у|е]?;Новозыбков;52.537173;31.9357991
почеп[а|у|е]?;Почеп;52.9154851;33.4744058
севск[а|у|е]?;Севск;52.1483358;34.4918415
сельц[о|у|е];Сельцо;53.3739884;34.1059172
стародуб[а|у|е]?;Стародуб;52.5852257;32.760403
сураж[а|у|е]?;Сураж;53.0170888;32.3938878
трубчевск[а|у|е]?;Трубчевск;52.5791734;33.7660547
унеч[а|е|у];Унеча;52.8461199;32.6757629
фокин[о|у|е];Фокино;53.4554145;34.4159238
бабушкин[а|у|е]?;Бабушкин;51.7112755;105.8673219
гусиноозерск[а|у|е]?;Гусиноозерск;51.2865048;106.5230319
закаменск[а|у|е]?;Закаменск;50.372713;103.286699
кяхт[а|е|у];Кяхта;50.346543;106.4533516
северобайкальск[а|у|е]?;Северобайкальск;55.635614;109.3361505
улан-удэ;Улан-Удэ;51.8335853;107.5842223
александров[а|у|е]?;Александров;56.391819;38.7111123
владимир[а|у|е]?;Владимир;56.1280804;40.4084376
вязник[и|а|о][в|м|х]?;Вязники;56.29773;42.2687398
горохов[е|ц][ц|о|а][м]?;Гороховец;56.2021036;42.6926111
гусь-хрустальн[ы|о][й|г|м][о|у]?;Гусь-Хрустальный;55.6198751;40.6579929
камешков[о|у|е];Камешково;56.3490152;40.9955183
карабанов[о|у|е];Карабаново;56.3131822;38.7034257
киржач[а|у|е]?;Киржач;56.1486863;38.8635701
ковров[а|у|е]?;Ковров;56.3554349;41.3170576
кольчугин[о|у|е];Кольчугино;56.3327254;39.391336
костерев[о|у|е];Костерево;55.9337222;39.6247398
курлов[о|у|е];Курлово;55.452698;40.6124108
лакинск[а|у|е]?;Лакинск;56.0180587;39.956551
меленк[а|и]?[х|м]?;Меленки;55.3387515;41.6340046
муром[а|у|е]?;Муром;55.5630311;42.0231362
петушк[и|а|о][в|м|х]?;Петушки;55.9298134;39.4508075
покров[а|у|е]?;Покров;55.9166398;39.1734526
радужн[ы|о][й|г|м][о|у]?;Радужный;55.9960277;40.3321855
собинк[а|е|у];Собинка;55.9939169;40.0179653
струнин[о|у|е];Струнино;56.3749967;38.5839667
судогд[а|е|у];Судогда;55.9498056;40.8562939
суздал[ь|и];Суздаль;56.4274441;40.4525692
юрьев-польск[и|о][й|г|м][о|у]?;Юрьев-Польский;56.4937757;39.6680539
волгоград[а|у|е]?;Волгоград;48.7070042;44.5170339
волжск[и|о][й|г|м][о|у]?;Волжский;48.7978209;44.7462538
дубовк[а|е|у];Дубовка;49.0554742;44.8270085
жирновск[а|у|е]?;Жирновск;50.9768814;44.7858202
калач[а|е|у]-на-дону?;Калач-на-Дону;48.6889024;43.5306303
камышин[а|у|е]?;Камышин;50.0651529;45.3844202
котельников[о|у|е];Котельниково;47.6310259;43.1330872
котов[о|у|е];Котово;50.3205766;44.8030699
краснослободск[а|у|е]?;Краснослободск;48.7068721;44.5630857
ленинск[а|у|е]?;Ленинск;48.6936061;45.1992692
михайловк[а|е|у];Михайловка;50.0708719;43.2401512
николаевск[а|у|е]?;Николаевск;50.0165306;45.4731658
новоаннинск[и|о][й|г|м][о|у]?;Новоаннинский;50.5296067;42.6666439
палласовк[а|е|у];Палласовка;50.0500944;46.8804277
петров вал[а|у|е]?;Петров Вал;50.1380557;45.20914
серафимович[а|у|е]?;Серафимович;49.5663183;42.7360402
суровикин[о|у|е];Суровикино;48.618917;42.8541163
урюпинск[а|у|е]?;Урюпинск;50.7903789;42.0288513
фролов[о|у|е];Фролово;49.7649148;43.6648641
бабаев[о|у|е];Бабаево;59.3892583;35.9377058
белозерск[а|у|е]?;Белозерск;60.0308381;37.7890586
велик[и|о][й|г|м][у|о]? устюг[а|у|е]?;Великий Устюг;60.7603913;46.3054414
вологд[а|е|у];Вологда;59.2483905;39.8355662
вытегр[а|е|у];Вытегра;61.0063465;36.4495137
грязов[е|ц][ц|о|а][м]?;Грязовец;58.8757553;40.2485362
кадников[а|у|е]?;Кадников;59.5037764;40.3441148
кириллов[а|у|е]?;Кириллов;59.8591523;38.3748782
красавин[о|у|е];Красавино;60.9612823;46.4814116
никольск[а|у|е]?;Никольск;59.5351837;45.4576137
сокол[а|у|е]?;Сокол;59.4758605;40.1114187
тотьм[а|е|у];Тотьма;59.9734998;42.7589506
устюжн[а|е|у];Устюжна;58.8383117;36.4425478
харовск[а|у|е]?;Харовск;59.9479423;40.2000298
черепов[е|ц][ц|о|а][м]?;Череповец;59.1269212;37.9090497
бобров[а|у|е]?;Бобров;51.0901649;40.0318256
богучар[а|у|е]?;Богучар;49.9352454;40.5590801
борисоглебск[а|у|е]?;Борисоглебск;51.3655754;42.1008334
бутурлиновк[а|е|у];Бутурлиновка;50.8311818;40.5976923
воронеж[а|у|е]?;Воронеж;51.6593332;39.1969229
калач[а|у|е]?;Калач;50.4242134;41.0162014
лиск[а|и]?[х|м]?;Лиски;50.9945626;39.5184909
нововоронеж[а|у|е]?;Нововоронеж;51.3091524;39.2162843
новохоперск[а|у|е]?;Новохоперск;51.0952211;41.6173404
острогожск[а|у|е]?;Острогожск;50.8677905;39.0407746
павловск[а|у|е]?;Павловск;50.453455;40.136874
поворин[о|у|е];Поворино;51.1954419;42.2472726
россош[ь|и];Россошь;50.1701949;39.6226965
семилук[а|и]?[х|м]?;Семилуки;51.6951644;39.0190454
эртил[ь|и];Эртиль;51.830932;40.8074182
буйнакск[а|у|е]?;Буйнакск;42.8214424;47.1165263
дагестански[е|м|х] огн[и|е|я][м|й]?;Дагестанские Огни;42.1152296;48.1939354
дербент[а|у|е]?;Дербент;42.058966;48.2907452
избербаш[а|у|е]?;Избербаш;42.5650962;47.8710051
каспийск[а|у|е]?;Каспийск;42.8916007;47.6367066
кизилюрт[а|у|е]?;Кизилюрт;43.203825;46.8729636
кизляр[а|у|е]?;Кизляр;43.8484083;46.7233699
махачкал[а|е|у];Махачкала;42.9849159;47.5047181
хасавюрт[а|у|е]?;Хасавюрт;43.2504665;46.5851292
южно-сухокумск[а|у|е]?;Южно-Сухокумск;44.6602467;45.6499523
биробиджан[а|у|е]?;Биробиджан;48.7946446;132.9217207
облучь[я|и|е|ю];Облучье;49.0189345;131.0540102
бале[й|я|е|ю];Балей;51.5823759;116.6379549
борз[я|и|е|ю];Борзя;50.3876058;116.5234779
краснокаменск[а|у|е]?;Краснокаменск;50.0929703;118.0323936
могоч[а|е|у];Могоча;53.7361398;119.7660867
нерчинск[а|у|е]?;Нерчинск;51.9594977;116.5852383
петровск-забайкальск[и|о][й|г|м][о|у]?;Петровск-Забайкальский;51.2748592;108.846681
сретенск[а|у|е]?;Сретенск;52.2461454;117.7117842
хилок[а|у|е]?;Хилок;51.3634856;110.4590898
чит[а|е|у];Чита;52.0340142;113.4994
шилк[а|е|у];Шилка;51.8497035;116.0334461
вичуг[а|е|у];Вичуга;57.2044698;41.9132201
гаврилов посад[а|у|е]?;Гаврилов Посад;56.5586946;40.1228906
заволжск[а|у|е]?;Заволжск;57.4918141;42.1375625
иванов[о|у|е];Иваново;56.9993792;40.9728272
кинешм[а|е|у];Кинешма;57.4425463;42.168914
комсомольск[а|у|е]?;Комсомольск;57.0273052;40.3776851
кохм[а|е|у];Кохма;56.9324606;41.0931657
наволок[а|и]?[х|м]?;Наволоки;57.4679066;41.9608002
плес[а|у|е]?;Плес;57.4606031;41.5122672
приволжск[а|у|е]?;Приволжск;57.3805743;41.2808565
пучеж[а|у|е]?;Пучеж;56.9820688;43.1683321
родник[и|а|о][в|м|х]?;Родники;57.1025975;41.7298834
тейков[о|у|е];Тейково;56.8542719;40.5353874
фурманов[а|у|е]?;Фурманов;57.2539276;41.1054432
шу[я|и|е|ю];Шуя;56.8560234;41.3800939
юж[а|е|у];Южа;56.5926877;42.0458099
юрьев[е|ц][ц|о|а][м]?;Юрьевец;57.3177781;43.1110401
карабулак[а|у|е]?;Карабулак;43.3055248;44.9094582
магас[а|у|е]?;Магас;43.1688611;44.8131207
малгобек[а|у|е]?;Малгобек;43.5096646;44.5901963
назран[ь|и];Назрань;43.2257841;44.7645779
сунж[а|е|у];Сунжа;43.3204196;45.0476331
алзама[й|я|ю|е]?;Алзамай;55.5551233;98.6643699
ангарск[а|у|е]?;Ангарск;52.544879;103.888543
байкальск[а|у|е]?;Байкальск;51.5230393;104.1487532
бирюсинск[а|у|е]?;Бирюсинск;55.9609167;97.8205348
бодайб[о|у|е];Бодайбо;57.8468636;114.1866287
братск[а|у|е]?;Братск;56.1513108;101.6340035
вихоревк[а|е|у];Вихоревка;56.1208145;101.1702926
железногорск-илимск[и|о][й|г|м][о|у]?;Железногорск-Илимский;56.5847888;104.114275
зим[а|е|у];Зима;53.920693;102.0491772
иркутск[а|у|е]?;Иркутск;52.2864036;104.2807466
киренск[а|у|е]?;Киренск;57.7756595;108.1109412
нижнеудинск[а|у|е]?;Нижнеудинск;54.8968931;99.0314056
саянск[а|у|е]?;Саянск;54.1107238;102.18015
свирск[а|у|е]?;Свирск;53.0842668;103.3364093
слюдянк[а|е|у];Слюдянка;51.6563983;103.7187545
тайшет[а|у|е]?;Тайшет;55.9405334;98.0030145
тулун[а|у|е]?;Тулун;54.557162;100.5780603
усолье-сибирско[я|и|е|ю];Усолье-Сибирское;52.7565808;103.6388109
усть-илимск[а|у|е]?;Усть-Илимск;57.9430504;102.7415734
усть-кут[а|у|е]?;Усть-Кут;56.7928178;105.7757343
черемхов[о|у|е];Черемхово;53.1369095;103.0901268
шелехов[а|у|е]?;Шелехов;52.2102538;104.0973294
баксан[а|у|е]?;Баксан;43.6819137;43.5345036
майск[и|о][й|г|м][о|у]?;Майский;43.6281516;44.0517314
нальчик[а|у|е]?;Нальчик;43.4845464;43.60713
нарткал[а|е|у];Нарткала;43.5578075;43.8575925
прохладн[ы|о][й|г|м][о|у]?;Прохладный;43.7589602;44.0102409
терек[а|у|е]?;Терек;43.4839358;44.1402161
тырныауз[а|у|е]?;Тырныауз;43.3981585;42.9213582
чегем[а|у|е]?;Чегем;43.5671525;43.5865792
багратионовск[а|у|е]?;Багратионовск;54.3866518;20.6418091
балтийск[а|у|е]?;Балтийск;54.6513372;19.9140572
гвардейск[а|у|е]?;Гвардейск;54.6588378;21.0501388
гурьевск[а|у|е]?;Гурьевск;54.770638;20.6039767
гусев[а|у|е]?;Гусев;54.5915455;22.1942445
зеленоградск[а|у|е]?;Зеленоградск;54.9600185;20.4753652
калининград[а|у|е]?;Калининград;54.7074702;20.5073241
краснознаменск[а|у|е]?;Краснознаменск;54.9453423;22.4928745
ладушкин[а|у|е]?;Ладушкин;54.5692156;20.1690153
мамонов[о|у|е];Мамоново;54.4646036;19.9453482
неман[а|у|е]?;Неман;55.0316524;22.0324064
нестеров[а|у|е]?;Нестеров;54.6313814;22.5713736
озерск[а|у|е]?;Озерск;54.4084705;22.0134438
пионерск[и|о][й|г|м][о|у]?;Пионерский;54.9516574;20.2277424
полесск[а|у|е]?;Полесск;54.8625126;21.0998067
правдинск[а|у|е]?;Правдинск;54.4430986;21.0085269
приморск[а|у|е]?;Приморск;54.7311437;19.9981926
светлогорск[а|у|е]?;Светлогорск;54.9439286;20.1514295
светл[ы|о][й|г|м][о|у]?;Светлый;54.6772897;20.1357595
славск[а|у|е]?;Славск;55.0449714;21.6742367
советск[а|у|е]?;Советск;55.0809336;21.8886106
черняховск[а|у|е]?;Черняховск;54.6244751;21.7969062
городовиковск[а|у|е]?;Городовиковск;46.0875083;41.935537
лаган[ь|и];Лагань;45.3930912;47.3432602
элист[а|е|у];Элиста;46.3083344;44.2702088
балабанов[о|у|е];Балабаново;55.1773714;36.6566951
белоусов[о|у|е];Белоусово;55.0956803;36.677629
боровск[а|у|е]?;Боровск;55.2130096;36.4926251
ермолин[о|у|е];Ермолино;55.1971758;36.5952722
жиздр[а|е|у];Жиздра;53.7521926;34.7386592
жуков[а|у|е]?;Жуков;55.0301833;36.7394903
калуг[а|е|у];Калуга;54.5059848;36.2516245
киров[а|у|е]?;Киров;54.0790111;34.3076201
козельск[а|у|е]?;Козельск;54.0347201;35.780768
кондров[о|у|е];Кондрово;54.7959473;35.9274842
кременк[а|и]?[х|м]?;Кременки;54.8862447;37.1168701
людинов[о|у|е];Людиново;53.8700828;34.4385915
малоярослав[е|ц][ц|о|а][м]?;Малоярославец;55.0177123;36.4633603
медын[ь|и];Медынь;54.9689785;35.8872168
мещовск[а|у|е]?;Мещовск;54.3191471;35.2816918
мосальск[а|у|е]?;Мосальск;54.4824939;34.9872239
обнинск[а|у|е]?;Обнинск;55.0943144;36.6121639
сосенск[и|о][й|г|м][о|у]?;Сосенский;54.0566016;35.9621646
спас-деменск[а|у|е]?;Спас-Деменск;54.409922;34.0189631
сухинич[и|а|е][й|м|х]?;Сухиничи;54.097296;35.3443568
тарус[а|е|у];Таруса;54.7236477;37.1671
юхнов[а|у|е]?;Юхнов;54.7446445;35.2424346
вилючинск[а|у|е]?;Вилючинск;52.9302415;158.4057632
елизов[о|у|е];Елизово;53.1830375;158.3883548
петропавловск-камчатск[и|о][й|г|м][о|у]?;Петропавловск-Камчатский;53.036908;158.6559254
карачаевск[а|у|е]?;Карачаевск;43.7732525;41.9143472
теберд[а|е|у];Теберда;43.4437731;41.7415142
усть-джегут[а|е|у];Усть-Джегута;44.0838442;41.9711046
черкесск[а|у|е]?;Черкесск;44.2269425;42.0466704
беломорск[а|у|е]?;Беломорск;64.5378417;34.7799462
кем[ь|и];Кемь;64.9543539;34.5949263
кондопог[а|е|у];Кондопога;62.2059817;34.2682122
костомукш[а|е|у];Костомукша;64.5889398;30.6016832
лахденпохь[я|и|е|ю];Лахденпохья;61.518881;30.1996116
медвежьегорск[а|у|е]?;Медвежьегорск;62.9127626;34.4568489
олон[е|ц][ц|о|а][м]?;Олонец;60.9794025;32.9725519
петрозаводск[а|у|е]?;Петрозаводск;61.7891264;34.3596434
питкярант[а|е|у];Питкяранта;61.5757191;31.4640557
пудож[а|у|е]?;Пудож;61.8058821;36.5329941
сегеж[а|е|у];Сегежа;63.7437572;34.3126982
сортавал[а|е|у];Сортавала;61.703367;30.6916998
суоярви;Суоярви;62.0787293;32.3499386
анжеро-судженск[а|у|е]?;Анжеро-Судженск;56.0786281;86.0201278
белов[о|у|е];Белово;54.4220968;86.3037373
березовск[и|о][й|г|м][о|у]?;Березовский;55.6693513;86.2744459
гурьевск[а|у|е]?;Гурьевск;54.2859263;85.9475985
калтан[а|у|е]?;Калтан;53.5210919;87.2771636
кемеров[о|у|е];Кемерово;55.3910651;86.0467781
киселевск[а|у|е]?;Киселевск;54.0059999;86.6366116
ленинск-кузнецк[и|о][й|г|м][о|у]?;Ленинск-Кузнецкий;54.6674492;86.1797324
мариинск[а|у|е]?;Мариинск;56.2127383;87.7454924
междуреченск[а|у|е]?;Междуреченск;53.6865289;88.0702754
мыск[а|и]?[х|м]?;Мыски;53.7125695;87.8055646
новокузнецк[а|у|е]?;Новокузнецк;53.794315;87.2142745
осинник[и|а|о][в|м|х]?;Осинники;53.5988055;87.3371272
полысаев[о|у|е];Полысаево;54.6055;86.2809208
прокопьевск[а|у|е]?;Прокопьевск;53.8604265;86.7183577
салаир[а|у|е]?;Салаир;54.2351735;85.8030733
тайг[а|е|у];Тайга;56.0622131;85.6207182
таштагол[а|у|е]?;Таштагол;52.759313;87.8476546
топк[а|и]?[х|м]?;Топки;55.2764707;85.6152619
юрг[а|е|у];Юрга;55.7202694;84.8886399
стар[а|о|у][ю|я|й] холуниц[а|е|у];Белая Холуница;58.8415239;50.8460699
вятские полян[ы|о|а|е][м|в]?;Вятские Поляны;56.2284817;51.0614855
зуевк[а|е|у];Зуевка;58.4032152;51.1331606
киров[а|у|е]?;Киров;58.6035264;49.6679304
кирово-чепецк[а|у|е]?;Кирово-Чепецк;58.5559424;50.0316848
кирс[а|у|е]?;Кирс;59.340056;52.2414437
котельнич[а|у|е]?;Котельнич;58.3034832;48.3475597
луз[а|е|у];Луза;60.6290609;47.2612445
малмыж[а|у|е]?;Малмыж;56.5243844;50.6782739
мураш[и|а|е][й|м|х]?;Мураши;59.3955383;48.9638417
нолинск[а|у|е]?;Нолинск;57.5597284;49.93575
омутнинск[а|у|е]?;Омутнинск;58.6698913;52.1894564
орлов[а|у|е]?;Орлов;58.5389776;48.8927723
слободско[й|я|е|ю];Слободской;58.7311574;50.1669249
советск[а|у|е]?;Советск;57.584196;48.9590272
сосновк[а|е|у];Сосновка;56.2532741;51.2833642
уржум[а|у|е]?;Уржум;57.1097477;50.0058097
яранск[а|у|е]?;Яранск;57.3040326;47.8478737
воркут[а|е|у];Воркута;67.4974082;64.061034
вуктыл[а|у|е]?;Вуктыл;63.8615274;57.3165402
емв[а|е|у];Емва;62.5965137;50.8732125
инт[а|е|у];Инта;66.0367316;60.1152961
микун[ь|и];Микунь;62.3579068;50.0719503
печор[а|е|у];Печора;65.148584;57.2239777
сосногорск[а|у|е]?;Сосногорск;63.5989841;53.876293
сыктывкар[а|у|е]?;Сыктывкар;61.6686617;50.8358151
усинск[а|у|е]?;Усинск;65.994147;57.5569423
ухт[а|е|у];Ухта;63.5565514;53.7014239
бу[й|я|е|ю];Буй;58.4733277;41.5306822
волгореченск[а|у|е]?;Волгореченск;57.4424559;41.1594201
галич[а|у|е]?;Галич;58.3828191;42.3654013
кологрив[а|у|е]?;Кологрив;58.8269323;44.3184927
костром[а|е|у];Кострома;57.768;40.927
макарьев[а|у|е]?;Макарьев;57.8807152;43.8014197
мантуров[о|у|е];Мантурово;58.3265441;44.757494
нерехт[а|е|у];Нерехта;57.4543369;40.5723598
солигалич[а|у|е]?;Солигалич;59.0784867;42.2878423
чухлом[а|е|у];Чухлома;58.753421;42.6884958
шарь[я|и|е|ю];Шарья;58.3760542;45.4062414
абинск[а|у|е]?;Абинск;44.8679655;38.1618157
анап[а|е|у];Анапа;44.8950433;37.3163282
апшеронск[а|у|е]?;Апшеронск;44.4584006;39.7299824
армавир[а|у|е]?;Армавир;45.0012149;41.1324168
белореченск[а|у|е]?;Белореченск;44.7651876;39.8781494
геленджик[а|у|е]?;Геленджик;44.5630007;38.0790852
горячий ключ[а|у|е]?;Горячий Ключ;44.6344864;39.1354738
гулькевич[и|а|е][й|м|х]?;Гулькевичи;45.3605121;40.6918389
ейск[а|у|е]?;Ейск;46.71157;38.2763895
кореновск[а|у|е]?;Кореновск;45.4641703;39.458949
краснодар[а|у|е]?;Краснодар;45.0401604;38.9759647
кропоткин[а|у|е]?;Кропоткин;45.4333007;40.5727951
крымск[а|у|е]?;Крымск;44.9344404;37.9855795
курганинск[а|у|е]?;Курганинск;44.8877025;40.5913245
лабинск[а|у|е]?;Лабинск;44.6354363;40.7245341
новокубанск[а|у|е]?;Новокубанск;45.1038699;41.0475175
новороссийск[а|у|е]?;Новороссийск;44.7235026;37.7686135
приморско-ахтарск[а|у|е]?;Приморско-Ахтарск;46.0515432;38.1704875
славянск[а|е|у]-на-кубани?;Славянск-на-Кубани;45.2603626;38.1259774
соч[и|а|е][й|м|х]?;Сочи;43.5854551;39.7231548
темрюк[а|у|е]?;Темрюк;45.2610949;37.4454412
тимашевск[а|у|е]?;Тимашевск;45.615923;38.9351837
тихорецк[а|у|е]?;Тихорецк;45.8546345;40.1260267
туапс[я|и|е|ю];Туапсе;44.1105335;39.0824904
усть-лабинск[а|у|е]?;Усть-Лабинск;45.2227359;39.6929577
хадыженск[а|у|е]?;Хадыженск;44.4122963;39.5320258
артемовск[а|у|е]?;Артемовск;54.3473075;93.4358377
ачинск[а|у|е]?;Ачинск;56.253907;90.4794397
боготол[а|у|е]?;Боготол;56.2098468;89.5299336
бородин[о|у|е];Бородино;55.9054121;94.9020967
дивногорск[а|у|е]?;Дивногорск;55.9576784;92.3800687
дудинк[а|е|у];Дудинка;69.4031364;86.1907218
енисейск[а|у|е]?;Енисейск;58.4485261;92.1651083
железногорск[а|у|е]?;Железногорск;56.2529035;93.532273
заозерн[ы|о][й|г|м][о|у]?;Заозерный;55.9617752;94.7091491
зеленогорск[а|у|е]?;Зеленогорск;56.1131564;94.5888103
игарк[а|е|у];Игарка;67.4666901;86.5812794
иланск[и|о][й|г|м][о|у]?;Иланский;56.2374037;96.067267
канск[а|у|е]?;Канск;56.2051282;95.7051096
кодинск[а|у|е]?;Кодинск;58.6032644;99.1797962
красноярск[а|у|е]?;Красноярск;56.0093879;92.8524806
лесосибирск[а|у|е]?;Лесосибирск;58.221681;92.5037872
минусинск[а|у|е]?;Минусинск;53.7104586;91.6872907
назаров[о|у|е];Назарово;56.0113799;90.4168775
норильск[а|у|е]?;Норильск;69.3489978;88.2009846
сосновоборск[а|у|е]?;Сосновоборск;56.1202647;93.3354121
ужур[а|у|е]?;Ужур;55.3141969;89.8333918
уяр[а|у|е]?;Уяр;55.8131263;94.3282601
шарыпов[о|у|е];Шарыпово;55.5389739;89.1801044
ялт[а|е|у];Ялта;44.4164605;34.0444797
алушт[а|е|у];Алушта;44.6764304;34.4100624
армянск[а|у|е]?;Армянск;46.1059307;33.6910012
бахчисара[й|я|ю|е]?;Бахчисарай;44.7514769;33.8752176
белогорск[а|у|е]?;Белогорск;45.057202;34.5999029
джанко[й|я|е|ю];Джанкой;45.7092306;34.3883372
евпатори[я|и|е|ю];Евпатория;45.190629;33.367634
керч[ь|и];Керчь;45.3562627;36.4674513
красноперекопск[а|у|е]?;Красноперекопск;45.9537576;33.7921939
сак[а|и]?[х|м]?;Саки;45.1341997;33.6033383
симферопол[ь|и];Симферополь;44.9482948;34.1001151
стар[ы|о][й|г|м][у|о]? крым[а|у|е]?;Старый Крым;45.029058;35.0901474
судак[а|у|е]?;Судак;44.8504679;34.9762034
феодоси[я|и|е|ю];Феодосия;45.0318393;35.3824259
щелкин[о|у|е];Щелкино;45.4288991;35.825165
ялт[а|е|у];Ялта;44.4953612;34.166308
далматов[о|у|е];Далматово;56.262114;62.9387011
катайск[а|у|е]?;Катайск;56.290809;62.5800359
курган[а|у|е]?;Курган;55.4443883;65.3161963
куртамыш[а|у|е]?;Куртамыш;54.9368539;64.4203722
макушин[о|у|е];Макушино;55.2153947;67.2451705
петухов[о|у|е];Петухово;55.0650077;67.8873408
шадринск[а|у|е]?;Шадринск;56.0870344;63.6297182
шумих[а|е|у];Шумиха;55.2280246;63.2901272
щучь[я|и|е|ю];Щучье;55.2087637;62.7478548
дмитриев[а|у|е]?;Дмитриев;52.1268464;35.0739038
железногорск[а|у|е]?;Железногорск;52.3380202;35.3516867
курск[а|у|е]?;Курск;51.7303637;36.1925603
курчатов[а|у|е]?;Курчатов;51.6604083;35.6572224
льгов[а|у|е]?;Льгов;51.6597148;35.2612491
обоян[ь|и];Обоянь;51.2119324;36.2755133
рыльск[а|у|е]?;Рыльск;51.5681314;34.6802597
судж[а|е|у];Суджа;51.1918927;35.2720915
фатеж[а|у|е]?;Фатеж;52.0917728;35.8538706
щигр[ы|о|а|е][м|в]?;Щигры;51.8786014;36.8910945
бокситогорск[а|у|е]?;Бокситогорск;59.4734797;33.845688
волосов[о|у|е];Волосово;59.4445408;29.4923355
волхов[а|у|е]?;Волхов;59.9005958;32.3520756
всеволожск[а|у|е]?;Всеволожск;60.0191278;30.6456718
выборг[а|у|е]?;Выборг;60.7130801;28.7328336
высоцк[а|у|е]?;Высоцк;60.6296236;28.5709314
гатчин[а|е|у];Гатчина;59.565237;30.1282473
ивангород[а|у|е]?;Ивангород;59.3766119;28.2231659
каменногорск[а|у|е]?;Каменногорск;60.950855;29.1308372
кингисепп[а|у|е]?;Кингисепп;59.3740435;28.6112444
кириш[и|а|е][й|м|х]?;Кириши;59.4742862;32.0624947
кировск[а|у|е]?;Кировск;59.8754216;30.981364
коммунар[а|у|е]?;Коммунар;59.6215133;30.3934125
кудров[о|у|е];Кудрово;59.9075226;30.5121008
лодейное пол[я|и|е|ю];Лодейное Поле;60.7320936;33.5521022
луг[а|е|у];Луга;58.7374031;29.8465776
любан[ь|и];Любань;59.3493847;31.2484801
мурин[о|у|е];Мурино;60.044862;30.4571456
никольско[я|и|е|ю];Никольское;59.7043309;30.7874571
новая ладог[а|е|у];Новая Ладога;60.1100135;32.3141203
отрадно[я|и|е|ю];Отрадное;59.7726848;30.7988557
пикалев[о|у|е];Пикалево;59.5132022;34.1772776
подпорожь[я|и|е|ю];Подпорожье;60.9127549;34.1567664
приморск[а|у|е]?;Приморск;60.3660209;28.6135772
приозерск[а|у|е]?;Приозерск;61.0330896;30.1587851
светогорск[а|у|е]?;Светогорск;61.1111282;28.8725865
сертолов[о|у|е];Сертолово;60.1446932;30.2095918
сланц[ы|о|а|е][м|в]?;Сланцы;59.1178185;28.0881475
сясьстро[й|я|е|ю];Сясьстрой;60.1401739;32.5601559
тихвин[а|у|е]?;Тихвин;59.6272904;33.5072731
тосн[о|у|е];Тосно;59.5407098;30.877812
шлиссельбург[а|у|е]?;Шлиссельбург;59.9443714;31.0333365
гряз[и|е|я][х|м|й]?;Грязи;52.4874097;39.9331142
данков[а|у|е]?;Данков;53.2577411;39.1456184
ел[е|ц][ц|о|а][м]?;Елец;52.6152411;38.5289342
задонск[а|у|е]?;Задонск;52.4004179;38.9205032
лебедян[ь|и];Лебедянь;53.0156117;39.143536
липецк[а|у|е]?;Липецк;52.610249;39.5947883
усман[ь|и];Усмань;52.0442648;39.726401
чаплыгин[а|у|е]?;Чаплыгин;53.24048;39.9670973
магадан[а|у|е]?;Магадан;59.5681332;150.8084956
сусуман[а|у|е]?;Сусуман;62.7805882;148.1540281
волжск[а|у|е]?;Волжск;55.8623156;48.3715083
звенигов[о|у|е];Звенигово;55.9738571;48.0170245
йошкар-ол[а|е|у];Йошкар-Ола;56.6343662;47.8999706
козьмодемьянск[а|у|е]?;Козьмодемьянск;56.3334036;46.546675
ардатов[а|у|е]?;Ардатов;54.8465544;46.2411232
инсар[а|у|е]?;Инсар;53.8770022;44.3696566
ковылкин[о|у|е];Ковылкино;54.0391072;43.9191539
краснослободск[а|у|е]?;Краснослободск;54.4248207;43.7845011
рузаевк[а|е|у];Рузаевка;54.0581967;44.9490466
саранск[а|у|е]?;Саранск;54.1809332;45.1862632
темников[а|у|е]?;Темников;54.6310583;43.2161099
мск;Москва;55.7540471;37.620405
москв[а|е|у|ы];Москва;55.7540471;37.620405
апрелевк[а|е|у];Апрелевка;55.5276918;37.065143
балаших[а|е|у];Балашиха;55.796389;37.938283
белоозёрск[и|о][й|г|м][о|у]?;Белоозёрский;55.4595766;38.4389742
бронниц[ы|о|а|е][м|в]?;Бронницы;55.4255379;38.264145
вере[я|и|е|ю];Верея;55.343369;36.185694
видно[я|и|е|ю];Видное;55.551725;37.7061984
волоколамск[а|у|е]?;Волоколамск;56.0356499;35.9585112
воскресенск[а|у|е]?;Воскресенск;55.3071519;38.7027953
высоковск[а|у|е]?;Высоковск;56.3359513;36.5251837
голицын[о|у|е];Голицыно;55.6190582;36.9856793
дедовск[а|у|е]?;Дедовск;55.8703276;37.1245043
дзержинск[и|о][й|г|м][о|у]?;Дзержинский;55.6240869;37.8440276
дмитров[а|у|е]?;Дмитров;56.3477457;37.526672
долгопрудн[ы|о][й|г|м][о|у]?;Долгопрудный;55.9385999;37.5101021
домодедов[о|у|е];Домодедово;55.4363283;37.7664984
дрезн[а|е|у];Дрезна;55.7443143;38.8498479
дубн[а|е|у];Дубна;56.741786;37.1757223
егорьевск[а|у|е]?;Егорьевск;55.3830113;39.0358317
жуковск[и|о][й|г|м][о|у]?;Жуковский;55.599803;38.1224298
зарайск[а|у|е]?;Зарайск;54.762456;38.8850978
звенигород[а|у|е]?;Звенигород;55.7297089;36.8554029
ивантеевк[а|е|у];Ивантеевка;55.9741665;37.9207539
истр[а|е|у];Истра;55.9062267;36.8601454
кашир[а|е|у];Кашира;54.853337;38.1904392
клин[а|у|е]?;Клин;56.3425605;36.7240032
коломн[а|е|у];Коломна;55.102814;38.7531002
королёв[а|у|е]?;Королёв;55.9161773;37.8545415
котельник[и|а|о][в|м|х]?;Котельники;55.6597925;37.8631156
красноармейск[а|у|е]?;Красноармейск;56.105426;38.140838
красногорск[а|у|е]?;Красногорск;55.8317203;37.3295266
краснозаводск[а|у|е]?;Краснозаводск;56.4409979;38.2320307
краснознаменск[а|у|е]?;Краснознаменск;55.5978959;37.0393709
кубинк[а|е|у];Кубинка;55.5754955;36.6951995
куровско[я|и|е|ю];Куровское;55.5792277;38.9207723
ликино-дулёв[о|у|е];Ликино-Дулёво;55.7078257;38.9578093
лобн[я|и|е|ю];Лобня;56.0328881;37.4614035
лосино-петровск[и|о][й|г|м][о|у]?;Лосино-Петровский;55.8713214;38.200599
луховиц[ы|о|а|е][м|в]?;Луховицы;54.9652077;39.0260266
лыткарин[о|у|е];Лыткарино;55.5778163;37.9033507
люберц[ы|о|а|е][м|в]?;Люберцы;55.676499;37.898125
можайск[а|у|е]?;Можайск;55.5069259;36.024043
мытищ[и|а|е][й|м|х]?;Мытищи;55.9105782;37.7363579
наро-фоминск[а|у|е]?;Наро-Фоминск;55.386185;36.734484
ногинск[а|у|е]?;Ногинск;55.8686133;38.4622104
одинцов[о|у|е];Одинцово;55.6789455;37.263686
озёр[ы|о|а|е][м|в]?;Озёры;54.8541006;38.5599196
орехово-зуев[о|у|е];Орехово-Зуево;55.8151421;38.9869822
павловский посад[а|у|е]?;Павловский Посад;55.7807244;38.6596983
пересвет[а|у|е]?;Пересвет;56.4158326;38.1733534
подольск[а|у|е]?;Подольск;55.4389322;37.5703482
протвин[о|у|е];Протвино;54.8705984;37.2182749
пушкин[о|у|е];Пушкино;56.0103638;37.8471403
пущин[о|у|е];Пущино;54.8324412;37.6210346
раменско[я|и|е|ю];Раменское;55.5495132;38.2728914
реутов[а|у|е]?;Реутов;55.7582621;37.8618553
рошал[ь|и];Рошаль;55.6632776;39.8656147
руз[а|е|у];Руза;55.7014744;36.1959206
сергиев посад[а|у|е]?;Сергиев Посад;56.3062548;38.1502661
серпухов[а|у|е]?;Серпухов;54.9226466;37.4033859
солнечногорск[а|у|е]?;Солнечногорск;56.185102;36.977631
стар[а|о|у][ю|я|й] купавн[а|е|у];Старая Купавна;55.810648;38.175624
ступин[о|у|е];Ступино;54.886274;38.078228
талдом[а|у|е]?;Талдом;56.7308564;37.5276003
фрязин[о|у|е];Фрязино;55.9590588;38.0410235
химк[а|и]?[х|м]?;Химки;55.888657;37.4303702
хотьков[о|у|е];Хотьково;56.2516982;37.9396017
черноголовк[а|е|у];Черноголовка;56.010005;38.379245
чехов[а|у|е]?;Чехов;55.1508011;37.4533252
шатур[а|е|у];Шатура;55.5777427;39.5445712
щёлков[о|у|е];Щёлково;55.9233801;37.9783707
электрогорск[а|у|е]?;Электрогорск;55.8780241;38.7806752
электростал[ь|и];Электросталь;55.7847291;38.4447045
электроуг[и|е|я][й|м]?;Электроугли;55.7170877;38.2192563
яхром[а|е|у];Яхрома;56.2890516;37.4831799
апатит[ы|о|а|е][м|в]?;Апатиты;67.5677761;33.4067929
гаджиев[о|у|е];Гаджиево;69.2491311;33.315341
заозерск[а|у|е]?;Заозерск;69.4003584;32.4501496
заполярн[ы|о][й|г|м][о|у]?;Заполярный;69.4132852;30.7984312
кандалакш[а|е|у];Кандалакша;67.1567974;32.4143218
кировск[а|у|е]?;Кировск;67.6150424;33.663735
ковдор[а|у|е]?;Ковдор;67.5661417;30.4741941
кол[а|е|у];Кола;68.8786028;33.0262299
мончегорск[а|у|е]?;Мончегорск;67.9386153;32.9359719
мурманск[а|у|е]?;Мурманск;69.007721;33.0685865
оленегорск[а|у|е]?;Оленегорск;68.1422058;33.2669407
островно[й|я|е|ю];Островной;68.0510344;39.5077846
полярны[е|м|х] зор[и|е|я][м|й]?;Полярные Зори;67.373084;32.4975636
полярн[ы|о][й|г|м][о|у]?;Полярный;69.1989583;33.4508591
североморск[а|у|е]?;Североморск;69.0766801;33.4177759
снежногорск[а|у|е]?;Снежногорск;69.1921409;33.2383502
нарьян-мар[а|у|е]?;Нарьян-Мар;67.6379672;53.0069565
арзамас[а|у|е]?;Арзамас;55.3945814;43.8408141
балахн[а|е|у];Балахна;56.495036;43.5758423
богородск[а|у|е]?;Богородск;56.1020828;43.5135442
ветлуг[а|е|у];Ветлуга;57.8559204;45.7761957
володарск[а|у|е]?;Володарск;56.2169751;43.1596417
ворсм[а|е|у];Ворсма;55.989943;43.2718859
выкс[а|е|у];Выкса;55.3207727;42.1678834
горбатов[а|у|е]?;Горбатов;56.1307769;43.0626185
город[е|ц][ц|о|а][м]?;Городец;56.6449218;43.4723104
дзержинск[а|у|е]?;Дзержинск;56.2376047;43.4599416
заволжь[я|и|е|ю];Заволжье;56.6404286;43.3872492
княгинин[о|у|е];Княгинино;55.8205915;45.032337
кстов[о|у|е];Кстово;56.1432084;44.1664198
кулебак[а|и]?[х|м]?;Кулебаки;55.4296181;42.5125538
лукоянов[а|у|е]?;Лукоянов;55.0326225;44.4933807
лысков[о|у|е];Лысково;56.0262359;45.035771
навашин[о|у|е];Навашино;55.543811;42.1887089
нижн[е|и][й|г|м][у|о]? новгород[а|у|е]?;Нижний Новгород;56.3240627;44.0053913
павлов[о|у|е];Павлово;55.9797564;43.0995042
первомайск[а|у|е]?;Первомайск;54.8675792;43.8013992
перевоз[а|у|е]?;Перевоз;55.5967718;44.5448369
саров[а|у|е]?;Саров;54.9228268;43.3448089
семенов[а|у|е]?;Семенов;56.7889794;44.4902885
сергач[а|у|е]?;Сергач;55.5201515;45.4813231
урен[ь|и];Урень;57.4612572;45.7833293
чкаловск[а|у|е]?;Чкаловск;56.7651262;43.242077
шахунь[я|и|е|ю];Шахунья;57.6764293;46.6129009
борович[и|а|е][й|м|х]?;Боровичи;58.3840197;33.9175929
валда[й|я|ю|е]?;Валдай;57.9823766;33.2369436
велик[и|о][й|г|м][у|о]? новгород[а|у|е]?;Великий Новгород;58.5213846;31.2755394
малая вишер[а|е|у];Малая Вишера;58.8458379;32.2247401
окуловк[а|е|у];Окуловка;58.3910296;33.2901557
пестов[о|у|е];Пестово;58.5973723;35.8143898
сольц[ы|о|а|е][м|в]?;Сольцы;58.1201281;30.309351
стар[а|о|у][ю|я|й] русс[а|е|у];Старая Русса;57.990737;31.3554897
холм[а|у|е]?;Холм;57.145108;31.1787499
чудов[о|у|е];Чудово;59.1248394;31.6866241
барабинск[а|у|е]?;Барабинск;55.35146;78.3464506
бердск[а|у|е]?;Бердск;54.7582156;83.1070605
болотно[я|и|е|ю];Болотное;55.6692421;84.3906889
искитим[а|у|е]?;Искитим;54.6267603;83.2951244
карасук[а|у|е]?;Карасук;53.7343189;78.0422967
каргат[а|у|е]?;Каргат;55.1945666;80.2829495
куйбышев[а|у|е]?;Куйбышев;55.4685094;78.3242048
купин[о|у|е];Купино;54.366055;77.2973368
новосибирск[а|у|е]?;Новосибирск;55.028191;82.9211489
об[ь|и];Обь;54.9945576;82.6937181
татарск[а|у|е]?;Татарск;55.2146167;75.9739914
тогучин[а|у|е]?;Тогучин;55.2251631;84.4104118
черепанов[о|у|е];Черепаново;54.2206476;83.3724521
чулым[а|у|е]?;Чулым;55.0906867;80.9592508
исилькул[ь|и];Исилькуль;54.9096002;71.2816284
калачинск[а|у|е]?;Калачинск;55.0598155;74.5653644
называевск[а|у|е]?;Называевск;55.5689323;71.3503426
омск[а|у|е]?;Омск;54.9848566;73.3674517
тар[а|е|у];Тара;56.9160511;74.3649194
тюкалинск[а|у|е]?;Тюкалинск;55.8703415;72.1954747
абдулин[о|у|е];Абдулино;53.6778906;53.6472483
бугуруслан[а|у|е]?;Бугуруслан;53.6523728;52.4326853
бузулук[а|у|е]?;Бузулук;52.7881277;52.2624877
га[й|я|ю|е]?;Гай;51.4649189;58.4436875
кувандык[а|у|е]?;Кувандык;51.4783857;57.3612636
медногорск[а|у|е]?;Медногорск;51.4037617;57.583163
новотроицк[а|у|е]?;Новотроицк;51.1964202;58.3018192
оренбург[а|у|е]?;Оренбург;51.7875092;55.1018828
орск[а|у|е]?;Орск;51.2294282;58.4752777
соль-илецк[а|у|е]?;Соль-Илецк;51.1633736;54.9896726
сорочинск[а|у|е]?;Сорочинск;52.426685;53.1542745
ясн[ы|о][й|г|м][о|у]?;Ясный;51.036838;59.874344
болхов[а|у|е]?;Болхов;53.4438496;36.0076833
дмитровск[а|у|е]?;Дмитровск;52.5054851;35.1415009
ливн[ы|о|а|е][м|в]?;Ливны;52.4284558;37.6039506
малоархангельск[а|у|е]?;Малоархангельск;52.4002192;36.5038579
мценск[а|у|е]?;Мценск;53.2788438;36.5749105
новосил[ь|и];Новосиль;52.97454;37.0437146
орёл[а|у|е]?;Орёл;52.9671298;36.0696427
белинск[и|о][й|г|м][о|у]?;Белинский;52.9640996;43.4183212
городищ[я|и|е|ю];Городище;53.2726916;45.7026142
заречн[ы|о][й|г|м][о|у]?;Заречный;53.1960836;45.1689907
каменк[а|е|у];Каменка;53.1855463;44.0469717
кузнецк[а|у|е]?;Кузнецк;53.1130888;46.605092
нижн[е|и][й|г|м][у|о]? ломов[а|у|е]?;Нижний Ломов;53.5300905;43.6730217
никольск[а|у|е]?;Никольск;53.7137496;46.0799857
пенз[а|е|у];Пенза;53.1753314;45.0348625
сердобск[а|у|е]?;Сердобск;52.4697595;44.2122414
спасск[а|у|е]?;Спасск;53.9271974;43.1859073
сурск[а|у|е]?;Сурск;53.0761357;45.6910796
александровск[а|у|е]?;Александровск;59.1613221;57.5763459
березник[и|а|о][в|м|х]?;Березники;59.4079923;56.8039427
верещагин[о|у|е];Верещагино;58.0797571;54.6581309
горнозаводск[а|у|е]?;Горнозаводск;58.3742532;58.3231716
гремячинск[а|у|е]?;Гремячинск;58.5626082;57.8520572
губах[а|е|у];Губаха;58.8371721;57.554533
добрянк[а|е|у];Добрянка;58.469685;56.4130737
кизел[а|у|е]?;Кизел;59.0512783;57.6471028
красновишерск[а|у|е]?;Красновишерск;60.3901321;57.0535682
краснокамск[а|у|е]?;Краснокамск;58.0822065;55.7479936
кудымкар[а|у|е]?;Кудымкар;59.0167925;54.6572508
кунгур[а|у|е]?;Кунгур;57.4283296;56.9438656
лысьв[а|е|у];Лысьва;58.0995875;57.8086825
нытв[а|е|у];Нытва;57.9336725;55.3356084
ос[а|е|у];Оса;57.2889515;55.4688668
оханск[а|у|е]?;Оханск;57.7180034;55.3872469
очер[а|у|е]?;Очер;57.8852686;54.7161091
перм[ь|и];Пермь;58.0102583;56.2342034
соликамск[а|у|е]?;Соликамск;59.6482998;56.771009
усоль[я|и|е|ю];Усолье;59.4277573;56.6837872
чайковск[и|о][й|г|м][о|у]?;Чайковский;56.7781501;54.1477965
чердын[ь|и];Чердынь;60.4011933;56.4799933
чермоз[а|у|е]?;Чермоз;58.7842834;56.1507138
чернушк[а|е|у];Чернушка;56.5160768;56.0763049
чусово[й|я|е|ю];Чусовой;58.2974596;57.8193615
арсеньев[а|у|е]?;Арсеньев;44.1622031;133.2696209
артем[а|у|е]?;Артем;43.3501675;132.1596175
большой камен[ь|и];Большой Камень;43.1111742;132.3480082
владивосток[а|у|е]?;Владивосток;43.1164904;131.8823937
дальнегорск[а|у|е]?;Дальнегорск;44.5539457;135.5662716
дальнереченск[а|у|е]?;Дальнереченск;45.9308483;133.7316907
лесозаводск[а|у|е]?;Лесозаводск;45.4780092;133.4186199
находк[а|е|у];Находка;42.8239372;132.8927361
партизанск[а|у|е]?;Партизанск;43.1280578;133.1264567
спасск-дальн[и|о][й|г|м][о|у]?;Спасск-Дальний;44.5901175;132.8157288
уссурийск[а|у|е]?;Уссурийск;43.7971818;131.9518229
фокин[о|у|е];Фокино;42.9706317;132.4110196
великие лук[а|и]?[х|м]?;Великие Луки;56.332208;30.5508641
гдов[а|у|е]?;Гдов;58.7432429;27.8264809
дн[о|у|е];Дно;57.826974;29.9629389
невел[ь|и];Невель;56.0201973;29.9239983
новоржев[а|у|е]?;Новоржев;57.029807;29.3433083
новосокольник[и|а|о][в|м|х]?;Новосокольники;56.3408431;30.1527573
опочк[а|е|у];Опочка;56.710725;28.6717519
остров[а|у|е]?;Остров;57.3451528;28.3437593
печор[ы|о|а|е][м|в]?;Печоры;57.8145817;27.622259
порхов[а|у|е]?;Порхов;57.7765219;29.5436626
псков[а|у|е]?;Псков;57.8194415;28.3317198
пустошк[а|е|у];Пустошка;56.3374813;29.3668055
пыталов[о|у|е];Пыталово;57.0637952;27.9236214
себеж[а|у|е]?;Себеж;56.2908554;28.4724326
азов[а|у|е]?;Азов;47.1121589;39.4232555
акса[й|я|ю|е]?;Аксай;47.2676314;39.8756872
батайск[а|у|е]?;Батайск;47.1383299;39.7507179
стар[а|о|у][ю|я|й] калитв[а|е|у];Белая Калитва;48.1769737;40.8033529
волгодонск[а|у|е]?;Волгодонск;47.5165338;42.1984951
гуков[о|у|е];Гуково;48.0448904;39.9484672
донецк[а|у|е]?;Донецк;48.3350706;39.945891
зверев[о|у|е];Зверево;48.0435487;40.1265822
зерноград[а|у|е]?;Зерноград;46.8495958;40.312837
каменск-шахтинск[и|о][й|г|м][о|у]?;Каменск-Шахтинский;48.3205326;40.2689583
константиновск[а|у|е]?;Константиновск;47.5773717;41.0967445
красный сулин[а|у|е]?;Красный Сулин;47.8831311;40.0781298
миллеров[о|у|е];Миллерово;48.9260077;40.3984087
морозовск[а|у|е]?;Морозовск;48.3511807;41.8309225
новочеркасск[а|у|е]?;Новочеркасск;47.411919;40.1042098
новошахтинск[а|у|е]?;Новошахтинск;47.757773;39.9363697
пролетарск[а|у|е]?;Пролетарск;46.7038963;41.727594
ростов[а|е|у]-на-дону?;Ростов-на-Дону;47.2224566;39.718803
сальск[а|у|е]?;Сальск;46.4752095;41.5410415
семикаракорск[а|у|е]?;Семикаракорск;47.5177337;40.8114167
таганрог[а|у|е]?;Таганрог;47.2094917;38.9350989
цимлянск[а|у|е]?;Цимлянск;47.6477448;42.0931505
шахт[ы|о|а|е][м|в]?;Шахты;47.7085287;40.2159846
касимов[а|у|е]?;Касимов;54.9373475;41.3913211
кораблин[о|у|е];Кораблино;53.9246659;40.0227745
михайлов[а|у|е]?;Михайлов;54.2297402;39.0091481
новомичуринск[а|у|е]?;Новомичуринск;54.0376572;39.74654
рыбно[я|и|е|ю];Рыбное;54.7256164;39.5134398
ряжск[а|у|е]?;Ряжск;53.7067584;40.0522274
рязан[ь|и];Рязань;54.6254445;39.7358609
сасов[о|у|е];Сасово;54.3508885;41.9117422
скопин[а|у|е]?;Скопин;53.823543;39.5492421
спас-клепик[и|а|о][в|м|х]?;Спас-Клепики;55.1291721;40.1745338
спасск-рязанск[и|о][й|г|м][о|у]?;Спасск-Рязанский;54.4070719;40.3763426
шацк[а|у|е]?;Шацк;54.0287312;41.7181803
жигулевск[а|у|е]?;Жигулевск;53.4011981;49.4945176
кинел[ь|и];Кинель;53.2210298;50.6343776
нефтегорск[а|у|е]?;Нефтегорск;52.7972914;51.1637392
новокуйбышевск[а|у|е]?;Новокуйбышевск;53.0994565;49.9477382
октябрьск[а|у|е]?;Октябрьск;53.1640488;48.670762
отрадн[ы|о][й|г|м][о|у]?;Отрадный;53.3800848;51.3438605
похвистнев[о|у|е];Похвистнево;53.6498299;52.1235156
самар[а|е|у];Самара;53.1950306;50.1069518
сызран[ь|и];Сызрань;53.1558674;48.4744629
тольятти;Тольятти;53.5205348;49.3894028
чапаевск[а|у|е]?;Чапаевск;52.928961;49.8673269
санкт-петербург[а|у|е]?;Санкт-Петербург;59.9391313;30.3159004
аркадак[а|у|е]?;Аркадак;51.938831;43.4999221
аткарск[а|у|е]?;Аткарск;51.8736062;45.0003247
балаков[о|у|е];Балаково;52.0224231;47.7827765
балашов[а|у|е]?;Балашов;51.5388697;43.1839757
вольск[а|у|е]?;Вольск;52.0459865;47.3873595
ершов[а|у|е]?;Ершов;51.3508505;48.2762226
калининск[а|у|е]?;Калининск;51.4993591;44.4710435
красноармейск[а|у|е]?;Красноармейск;51.023541;45.695044
красный кут[а|у|е]?;Красный Кут;50.9598317;46.9712016
маркс[а|у|е]?;Маркс;51.7133337;46.7400339
новоузенск[а|у|е]?;Новоузенск;50.455199;48.1413153
петровск[а|у|е]?;Петровск;52.3094237;45.3851877
пугачев[а|у|е]?;Пугачев;52.0159921;48.7972223
ртищев[о|у|е];Ртищево;52.2616271;43.7842248
саратов[а|у|е]?;Саратов;51.533557;46.034257
хвалынск[а|у|е]?;Хвалынск;52.4951572;48.1045771
шихан[ы|о|а|е][м|в]?;Шиханы;52.1147391;47.2023118
энгельс[а|у|е]?;Энгельс;51.4854003;46.126722
александровск-сахалинск[и|о][й|г|м][о|у]?;Александровск-Сахалинский;50.8974378;142.1578559
анив[а|е|у];Анива;46.713152;142.5265804
долинск[а|у|е]?;Долинск;47.3255783;142.7945071
корсаков[а|у|е]?;Корсаков;46.6324545;142.799445
курильск[а|у|е]?;Курильск;45.2270954;147.8796323
макаров[а|у|е]?;Макаров;48.6236334;142.7803205
невельск[а|у|е]?;Невельск;46.6526899;141.8630725
ох[а|е|у];Оха;53.5867839;142.9412411
поронайск[а|у|е]?;Поронайск;49.238866;143.1008333
северо-курильск[а|у|е]?;Северо-Курильск;50.6730577;156.1282211
томар[и|е|я][х|м|й]?;Томари;47.7620108;142.0615837
углегорск[а|у|е]?;Углегорск;49.0815774;142.0692639
холмск[а|у|е]?;Холмск;47.0408423;142.041688
южно-сахалинск[а|у|е]?;Южно-Сахалинск;46.9591631;142.737976
алапаевск[а|у|е]?;Алапаевск;57.8475571;61.6693817
арамил[ь|и];Арамиль;56.694632;60.8343125
артемовск[и|о][й|г|м][о|у]?;Артемовский;57.3384177;61.8947443
асбест[а|у|е]?;Асбест;57.0052277;61.4581156
березовск[и|о][й|г|м][о|у]?;Березовский;56.9095924;60.8180907
богданович[а|у|е]?;Богданович;56.7764795;62.0463679
верхн[е|и][й|г|м][у|о]? тагил[а|у|е]?;Верхний Тагил;57.3763758;59.9517653
верхн[е|я][й|я] пышм[а|е|у];Верхняя Пышма;56.9758903;60.5650383
верхн[е|я][й|я] салд[а|е|у];Верхняя Салда;58.0465803;60.5560164
верхн[е|я][й|я] тур[а|е|у];Верхняя Тура;58.3643685;59.8265235
верхотурь[я|и|е|ю];Верхотурье;58.8622073;60.8103945
волчанск[а|у|е]?;Волчанск;59.9351707;60.0798618
дегтярск[а|у|е]?;Дегтярск;56.7048206;60.079138
екатеринбург[а|у|е]?;Екатеринбург;56.8385216;60.6054911
заречн[ы|о][й|г|м][о|у]?;Заречный;56.8102931;61.3380029
ивдел[ь|и];Ивдель;60.6944496;60.4245069
ирбит[а|у|е]?;Ирбит;57.6838362;63.057675
каменск-уральск[и|о][й|г|м][о|у]?;Каменск-Уральский;56.414962;61.9188674
камышлов[а|у|е]?;Камышлов;56.8465034;62.7119766
карпинск[а|у|е]?;Карпинск;59.7665925;60.0011703
качканар[а|у|е]?;Качканар;58.7051762;59.4839155
кировград[а|у|е]?;Кировград;57.4299433;60.0624051
краснотурьинск[а|у|е]?;Краснотурьинск;59.7636635;60.1934525
красноуральск[а|у|е]?;Красноуральск;58.348651;60.0408764
красноуфимск[а|у|е]?;Красноуфимск;56.612387;57.7636637
кушв[а|е|у];Кушва;58.2826013;59.7645766
лесно[й|я|е|ю];Лесной;58.6348516;59.7981565
михайловск[а|у|е]?;Михайловск;56.4370039;59.1137316
невьянск[а|у|е]?;Невьянск;57.49131;60.2183429
нижние серги;Нижние Серги;56.6544959;59.2953035
нижн[е|и][й|г|м][у|о]? тагил[а|у|е]?;Нижний Тагил;57.910126;59.9812853
нижн[е|я][й|я] салд[а|е|у];Нижняя Салда;58.0748272;60.7025418
нижн[е|я][й|я] тур[а|е|у];Нижняя Тура;58.6309267;59.8520344
новая лял[я|и|е|ю];Новая Ляля;59.0538977;60.5944825
новоуральск[а|у|е]?;Новоуральск;57.2472567;60.0956714
первоуральск[а|у|е]?;Первоуральск;56.9080085;59.942926
полевско[й|я|е|ю];Полевской;56.4956952;60.2365298
ревд[а|е|у];Ревда;56.7986319;59.9071591
реж;Реж;57.3717477;61.3833842
североуральск[а|у|е]?;Североуральск;60.1533109;59.9525245
серов[а|у|е]?;Серов;59.6047724;60.5753882
среднеуральск[а|у|е]?;Среднеуральск;56.9918901;60.4771018
сухой лог[а|у|е]?;Сухой Лог;56.9076193;62.0358093
сысерт[ь|и];Сысерть;56.5005715;60.8190003
тавд[а|е|у];Тавда;58.0434672;65.274217
талиц[а|е|у];Талица;57.0122687;63.7320757
туринск[а|у|е]?;Туринск;58.0393524;63.6981973
севастопол[ь|и|е][м]?;Севастополь;44.6167013;33.525355
алагир[а|у|е]?;Алагир;43.0417684;44.2199715
ардон[а|у|е]?;Ардон;43.1755152;44.2955775
беслан[а|у|е]?;Беслан;43.1937529;44.5338707
владикавказ[а|у|е]?;Владикавказ;43.020588;44.6819182
дигор[а|е|у];Дигора;43.1567628;44.1549483
моздок[а|у|е]?;Моздок;43.7471342;44.6569607
велиж[а|у|е]?;Велиж;55.6057916;31.1856206
вязьм[а|е|у];Вязьма;55.2116983;34.2951663
гагарин[а|у|е]?;Гагарин;55.5525228;34.9950502
демидов[а|у|е]?;Демидов;55.2682105;31.5062809
десногорск[а|у|е]?;Десногорск;54.146457;33.2833222
дорогобуж[а|у|е]?;Дорогобуж;54.9136959;33.3023162
духовщин[а|е|у];Духовщина;55.1950257;32.401252
ельн[я|и|е|ю];Ельня;54.5837795;33.1749867
починок[а|у|е]?;Починок;54.406244;32.4398039
рославл[ь|и];Рославль;53.9449558;32.8480258
рудн[я|и|е|ю];Рудня;54.9441093;31.0794806
сафонов[о|у|е];Сафоново;55.1199661;33.2336988
смоленск[а|у|е]?;Смоленск;54.782635;32.045251
сычевк[а|е|у];Сычевка;55.8308821;34.2778793
ярцев[о|у|е];Ярцево;55.0564732;32.6902302
благодарн[ы|о][й|г|м][о|у]?;Благодарный;45.0989782;43.4306455
буденновск[а|у|е]?;Буденновск;44.7816067;44.1650339
георгиевск[а|у|е]?;Георгиевск;44.1485694;43.4739851
ессентук[а|и]?[х|м]?;Ессентуки;44.0446186;42.8588653
железноводск[а|у|е]?;Железноводск;44.1320568;43.0306461
зеленокумск[а|у|е]?;Зеленокумск;44.4032668;43.8841877
изобильн[ы|о][й|г|м][о|у]?;Изобильный;45.3684296;41.708702
ипатов[о|у|е];Ипатово;45.7181751;42.8970206
кисловодск[а|у|е]?;Кисловодск;43.9052044;42.7168721
лермонтов[а|у|е]?;Лермонтов;44.1054107;42.973135
минеральные вод[ы|о|а|е][м|в]?;Минеральные Воды;44.2087273;43.138408
михайловск[а|у|е]?;Михайловск;45.1297323;42.0288443
невинномысск[а|у|е]?;Невинномысск;44.6226031;41.9476723
нефтекумск[а|у|е]?;Нефтекумск;44.7544552;44.9865347
новоалександровск[а|у|е]?;Новоалександровск;45.4932733;41.2153996
новопавловск[а|у|е]?;Новопавловск;43.9617097;43.6342865
пятигорск[а|у|е]?;Пятигорск;44.041091;43.0661553
светлоград[а|у|е]?;Светлоград;45.328659;42.8565714
ставропол[ь|и];Ставрополь;45.044516;41.9689655
жердевк[а|е|у];Жердевка;51.8422192;41.4617687
кирсанов[а|у|е]?;Кирсанов;52.6506335;42.7286445
котовск[а|у|е]?;Котовск;52.5924489;41.5101237
мичуринск[а|у|е]?;Мичуринск;52.8912389;40.5104443
моршанск[а|у|е]?;Моршанск;53.4436216;41.8115478
рассказов[о|у|е];Рассказово;52.6538833;41.874285
тамбов[а|у|е]?;Тамбов;52.7213154;41.452264
уваров[о|у|е];Уварово;51.9767841;42.2529799
агрыз[а|у|е]?;Агрыз;56.5232864;52.9943775
азнакаев[о|у|е];Азнакаево;54.8598642;53.0745527
альметьевск[а|у|е]?;Альметьевск;54.9014619;52.2970467
арск[а|у|е]?;Арск;56.0912567;49.877067
бавл[ы|о|а|е][м|в]?;Бавлы;54.4062891;53.2458065
болгар[а|у|е]?;Болгар;54.974891;49.0303882
бугульм[а|е|у];Бугульма;54.5363495;52.7895849
буинск[а|у|е]?;Буинск;54.9641538;48.2901209
елабуг[а|е|у];Елабуга;55.7567107;52.0543794
заинск[а|у|е]?;Заинск;55.299053;52.0062972
зеленодольск[а|у|е]?;Зеленодольск;55.8466651;48.5010954
иннополис[а|у|е]?;Иннополис;55.7521699;48.7446846
казан[ь|и];Казань;55.7943584;49.1114975
кукмор[а|у|е]?;Кукмор;56.1861392;50.8970238
лаишев[о|у|е];Лаишево;55.4042867;49.5499838
лениногорск[а|у|е]?;Лениногорск;54.5967034;52.4431906
мамадыш[а|у|е]?;Мамадыш;55.7150413;51.4129016
менделеевск[а|у|е]?;Менделеевск;55.895169;52.3143347
мензелинск[а|у|е]?;Мензелинск;55.7270698;53.1003968
набережные челн[ы|о|а|е][м|в]?;Набережные Челны;55.7434619;52.3959165
нижнекамск[а|у|е]?;Нижнекамск;55.6313609;51.8144669
нурлат[а|у|е]?;Нурлат;54.4281461;50.8049337
тетюш[и|а|е][й|м|х]?;Тетюши;54.936516;48.8314533
чистопол[ь|и];Чистополь;55.3699139;50.6285784
андреапол[ь|и];Андреаполь;56.6506724;32.2620163
бежецк[а|у|е]?;Бежецк;57.7860089;36.6904983
болого[я|и|е|ю];Бологое;57.8855767;34.0537771
весьегонск[а|у|е]?;Весьегонск;58.6582598;37.2567558
вышн[и|е][й|м|г][о]? волочек[а|у|е]?;Вышний Волочек;57.568302;34.5404016
западная двин[а|е|у];Западная Двина;56.2566492;32.0805315
зубцов[а|у|е]?;Зубцов;56.1760868;34.5825515
калязин[а|у|е]?;Калязин;57.2579478;37.7819693
кашин[а|у|е]?;Кашин;57.360194;37.6119436
кимр[ы|о|а|е][м|в]?;Кимры;56.8733213;37.3556605
конаков[о|у|е];Конаково;56.7275204;36.8012716
красный холм[а|у|е]?;Красный Холм;58.0571446;37.1126156
кувшинов[о|у|е];Кувшиново;57.0265168;34.1676009
лихославл[ь|и];Лихославль;57.1221304;35.4667605
нелидов[о|у|е];Нелидово;56.2232566;32.7767459
осташков[а|у|е]?;Осташков;57.1456744;33.1115372
ржев[а|у|е]?;Ржев;56.262881;34.3291002
стариц[а|е|у];Старица;56.514876;34.9336396
твер[ь|и];Тверь;56.8586059;35.9116761
торжок[а|у|е]?;Торжок;57.04133;34.9602344
тороп[е|ц][ц|о|а][м]?;Торопец;56.5012188;31.6355466
удомл[я|и|е|ю];Удомля;57.8787314;35.0167348
асин[о|у|е];Асино;56.9907085;86.1765257
кедров[ы|о][й|г|м][о|у]?;Кедровый;57.561869;79.5677821
колпашев[о|у|е];Колпашево;58.3114253;82.9025829
северск[а|у|е]?;Северск;56.6031285;84.8809926
стрежево[й|я|е|ю];Стрежевой;60.732895;77.604122
томск[а|у|е]?;Томск;56.4845804;84.9481582
алексин[а|у|е]?;Алексин;54.5083349;37.0478067
белев[а|у|е]?;Белев;53.8114179;36.1382247
богородицк[а|у|е]?;Богородицк;53.7701014;38.1225152
болохов[о|у|е];Болохово;54.0820349;37.826724
венев[а|у|е]?;Венев;54.3542315;38.2642236
донско[й|я|е|ю];Донской;53.9678944;38.3371824
ефремов[а|у|е]?;Ефремов;53.1464766;38.0921657
кимовск[а|у|е]?;Кимовск;53.9698378;38.5380808
киреевск[а|у|е]?;Киреевск;53.9319555;37.9220351
липк[а|и]?[х|м]?;Липки;53.9417551;37.7020148
новомосковск[а|у|е]?;Новомосковск;54.0109075;38.2914024
плавск[а|у|е]?;Плавск;53.7096415;37.2862352
советск[а|у|е]?;Советск;53.9338874;37.6316141
суворов[а|у|е]?;Суворов;54.1343585;36.4807419
тул[а|е|у];Тула;54.1920559;37.6153842
узлова[я|и|е|ю];Узловая;53.9730452;38.1763201
чекалин[а|у|е]?;Чекалин;54.0984438;36.2474142
щекин[о|у|е];Щекино;54.0020652;37.5176288
ясногорск[а|у|е]?;Ясногорск;54.4795484;37.6896048
ак-довурак[а|у|е]?;Ак-Довурак;51.178452;90.5985129
кызыл[а|у|е]?;Кызыл;51.7191047;94.4376882
туран[а|у|е]?;Туран;52.1449619;93.9173396
чадан[а|у|е]?;Чадан;51.2844502;91.5788609
шагонар[а|у|е]?;Шагонар;51.5346393;92.9199675
заводоуковск[а|у|е]?;Заводоуковск;56.5027463;66.5513613
ишим[а|у|е]?;Ишим;56.1104858;69.4795776
тобольск[а|у|е]?;Тобольск;58.2017299;68.2538558
тюмен[ь|и];Тюмень;57.1529744;65.5344099
ялуторовск[а|у|е]?;Ялуторовск;56.6547289;66.3122992
воткинск[а|у|е]?;Воткинск;57.0518149;53.9873096
глазов[а|у|е]?;Глазов;58.1359233;52.6635038
ижевск[а|у|е]?;Ижевск;56.852738;53.2114896
камбарк[а|е|у];Камбарка;56.2659916;54.193374
можг[а|е|у];Можга;56.4427774;52.2137886
сарапул[а|у|е]?;Сарапул;56.4615767;53.8037657
барыш[а|у|е]?;Барыш;53.6533992;47.1181134
димитровград[а|у|е]?;Димитровград;54.2167926;49.6262585
инз[а|е|у];Инза;53.8549647;46.3533459
новоульяновск[а|у|е]?;Новоульяновск;54.1447956;48.3910789
сенгиле[й|я|е|ю];Сенгилей;53.958964;48.7768269
ульяновск[а|у|е]?;Ульяновск;54.3079415;48.3748487
амурск[а|у|е]?;Амурск;50.2344147;136.8792444
бикин[а|у|е]?;Бикин;46.8185743;134.2550718
вяземск[и|о][й|г|м][о|у]?;Вяземский;47.5353379;134.7553856
комсомольск-на-амур[я|и|е|ю];Комсомольск-на-Амуре;50.5498936;137.0079408
николаевск-на-амур[я|и|е|ю];Николаевск-на-Амуре;53.1460657;140.7111367
советская гаван[ь|и];Советская Гавань;48.9664966;140.285174
хабаровск[а|у|е]?;Хабаровск;48.4647258;135.0598942
абаз[а|е|у];Абаза;52.6516647;90.0885686
абакан[а|у|е]?;Абакан;53.7223325;91.4436721
саяногорск[а|у|е]?;Саяногорск;53.1008083;91.4122454
сорск[а|у|е]?;Сорск;54.0002888;90.2594446
черногорск[а|у|е]?;Черногорск;53.8259342;91.3260229
белоярск[и|о][й|г|м][о|у]?;Белоярский;63.7121099;66.6772226
когалым[а|у|е]?;Когалым;62.2639527;74.4829794
лангепас[а|у|е]?;Лангепас;61.2536939;75.1807763
лянтор[а|у|е]?;Лянтор;61.6392863;72.179409
мегион[а|у|е]?;Мегион;61.0318712;76.1025878
нефтеюганск[а|у|е]?;Нефтеюганск;61.0882676;72.6164079
нижневартовск[а|у|е]?;Нижневартовск;60.9396698;76.5696184
няган[ь|и];Нягань;62.1454701;65.3946047
покач[и|а|е][й|м|х]?;Покачи;61.7422169;75.5941517
пыть-ях[а|у|е]?;Пыть-Ях;60.7585833;72.8365617
радужн[ы|о][й|г|м][о|у]?;Радужный;62.1342888;77.4584094
советск[и|о][й|г|м][о|у]?;Советский;61.3706913;63.5667222
сургут[а|у|е]?;Сургут;61.2541083;73.3961587
ура[й|я|ю|е];Урай;60.1296954;64.8038508
ханты-мансийск[а|у|е]?;Ханты-Мансийск;61.0023984;69.0184798
югорск[а|у|е]?;Югорск;61.3123568;63.3365484
аш[а|е|у];Аша;54.9906527;57.2783953
бакал[а|у|е]?;Бакал;54.9406399;58.8051698
верхнеуральск[а|у|е]?;Верхнеуральск;53.8760961;59.2169852
верхн[е|и][й|г|м][у|о]? уфале[й|я|е|ю];Верхний Уфалей;56.0487158;60.2318886
еманжелинск[а|у|е]?;Еманжелинск;54.7554548;61.3243477
златоуст[а|у|е]?;Златоуст;55.1714905;59.6725549
карабаш[а|у|е]?;Карабаш;55.4852323;60.2358881
картал[ы|о|а|е][м|в]?;Карталы;53.0536197;60.6478408
кас[и|е|я][й|м]?;Касли;55.8868784;60.7421663
катав-ивановск[а|у|е]?;Катав-Ивановск;54.7521438;58.1983648
копейск[а|у|е]?;Копейск;55.116665;61.6179185
коркин[о|у|е];Коркино;54.8903147;61.4034576
кус[а|е|у];Куса;55.3386053;59.4385778
кыштым[а|у|е]?;Кыштым;55.7061276;60.5563781
магнитогорск[а|у|е]?;Магнитогорск;53.4072153;58.9791437
миасс[а|у|е]?;Миасс;55.0456457;60.1077572
миньяр[а|у|е]?;Миньяр;55.0709557;57.548478
нязепетровск[а|у|е]?;Нязепетровск;56.0536895;59.6097202
озерск[а|у|е]?;Озерск;55.763154;60.7076198
пласт[а|у|е]?;Пласт;54.3692764;60.8151894
сатк[а|е|у];Сатка;55.0405288;59.0288975
сим[а|у|е]?;Сим;54.9907827;57.6900155
снежинск[а|у|е]?;Снежинск;56.0851495;60.7324914
трехгорн[ы|о][й|г|м][о|у]?;Трехгорный;54.8178249;58.4464194
троицк[а|у|е]?;Троицк;54.0843745;61.5586831
усть-катав[а|у|е]?;Усть-Катав;54.9260812;58.152805
чебаркул[ь|и];Чебаркуль;54.9818567;60.3773121
челябинск[а|у|е]?;Челябинск;55.1602624;61.4008078
южноуральск[а|у|е]?;Южноуральск;54.448927;61.2581158
юрюзан[ь|и];Юрюзань;54.854662;58.4226698
аргун[а|у|е]?;Аргун;43.2916774;45.8723105
грозн[ы|о][й|г|м][о|у]?;Грозный;43.3180145;45.698291
гудермес[а|у|е]?;Гудермес;43.3519142;46.1035645
курчало[й|я|е|ю];Курчалой;43.2046547;46.0889364
урус-мартан[а|у|е]?;Урус-Мартан;43.120175;45.539276
ша[и|е|я][й|м]?;Шали;43.1488691;45.9009629
алатыр[ь|и];Алатырь;54.8397989;46.5721997
канаш[а|у|е]?;Канаш;55.507;47.4918273
козловк[а|е|у];Козловка;55.8406025;48.2577735
мариинский посад[а|у|е]?;Мариинский Посад;56.111923;47.7142942
новочебоксарск[а|у|е]?;Новочебоксарск;56.1094977;47.4791113
цивильск[а|у|е]?;Цивильск;55.8650213;47.4729349
чебоксар[ы|о|а|е][м|в]?;Чебоксары;56.1438298;47.2489782
шумерл[я|и|е|ю];Шумерля;55.4962415;46.4182681
ядрин[а|у|е]?;Ядрин;55.9406974;46.2020896
анадыр[ь|и];Анадырь;64.7313924;177.5015421
билибин[о|у|е];Билибино;68.0584191;166.4388172
певек[а|у|е]?;Певек;69.7016661;170.2999022
алдан[а|у|е]?;Алдан;58.6094283;125.3817188
верхоянск[а|у|е]?;Верхоянск;67.5502451;133.390735
вилюйск[а|у|е]?;Вилюйск;63.7517616;121.627284
ленск[а|у|е]?;Ленск;60.7276196;114.9548255
мирн[ы|о][й|г|м][о|у]?;Мирный;62.536232;113.9667728
нерюнгри;Нерюнгри;56.6599953;124.7202403
нюрб[а|е|у];Нюрба;63.2828955;118.3242437
олекминск[а|у|е]?;Олекминск;60.3758006;120.4060878
покровск[а|у|е]?;Покровск;61.4843503;129.1482392
среднеколымск[а|у|е]?;Среднеколымск;67.4582218;153.7069425
томмот[а|у|е]?;Томмот;58.9586859;126.2875462
удачн[ы|о][й|г|м][о|у]?;Удачный;66.4071765;112.3061555
якутск[а|у|е]?;Якутск;62.0281405;129.7325887
губкинск[и|о][й|г|м][о|у]?;Губкинский;64.4457594;76.4713274
лабытнанг[и|е|а][х|м]?;Лабытнанги;66.6592841;66.3883009
муравленк[о|у|е];Муравленко;63.7940552;74.4948635
надым[а|у|е]?;Надым;65.5377966;72.5182736
нов[ы|о][й|г|м][у|о]? уренго[й|я|е|ю];Новый Уренгой;66.0839433;76.6809681
ноябрьск[а|у|е]?;Ноябрьск;63.2018039;75.4510581
салехард[а|у|е]?;Салехард;66.5492077;66.6085318
тарко-сал[я|и|е|ю];Тарко-Сале;64.9118803;77.7610236
гаврилов-ям[а|у|е]?;Гаврилов-Ям;57.3091058;39.8546444
данилов[а|у|е]?;Данилов;58.1860098;40.1795067
любим[а|у|е]?;Любим;58.3620228;40.686841
мышкин[а|у|е]?;Мышкин;57.7881684;38.4544224
переславль-залесск[и|о][й|г|м][о|у]?;Переславль-Залесский;56.7360544;38.8543617
пошехонь[я|и|е|ю];Пошехонье;58.5062879;39.1208434
ростов[а|у|е]?;Ростов;57.2051315;39.4378622
рыбинск[а|у|е]?;Рыбинск;58.0485495;38.8584119
тутаев[а|у|е]?;Тутаев;57.8674993;39.5369627
углич[а|у|е]?;Углич;57.5224249;38.3020044
ярославл[ь|и];Ярославль;57.6215477;39.8977411
спб;Санкт-Петербург;59.9391313;30.3159004
зеленоград[а|о|е]?[м]?;Зеленоград;55.9825000;37.1813900
питер[а|о|е]?[м]?;Санкт-Петербург;59.9391313;30.3159004
балаших[а|у|е|и];Балашиха;55.8094500;37.9580600
фиолент[а|у|е]?;Мыс Фиолент;44.501336;33.489023
электроугл[и|е|я][й|м]?[и]?;Электроугли;55.7244500;38.2090800
Щёлково;Щёлково;55.925;37.9722
